{

"Wonders" : [
{
"name" : "The Great wall",
"Place" : "Beijing (China)",
"image" : "https://www.wonders-of-the-world.net/Seven/images/Vignettes/Modernes/Grande-muraille-de-Chine-V.jpg",

"Map" : {
        "lattitude":40.432177,
        "longitude" :116.570364
        }
},

{
"name" : "The city of Petra",
"Place" : "Petra (Jordania)",
"image" : "https://www.wonders-of-the-world.net/Seven/images/Vignettes/Modernes/Petra-V.jpg",

"Map" : {
        "lattitude":30.328732, 
        "longitude" :35.444362
        }
},

{
"name" : "Christ the Redeemer",
"Place" : "Rio-de-Janeiro (Brazil)",
"image" : "https://www.wonders-of-the-world.net/Seven/images/Vignettes/Modernes/Christ-redempteur-V.jpg",

"Map" : {
        "lattitude":-22.951550, 
        "longitude" :-43.210466
        }
},
{
"name" : "The Machu Picchu",
"Place" : "Cuzco (Peru)",
"image" : "https://www.wonders-of-the-world.net/Seven/images/Vignettes/Modernes/Machu-Picchu-V.jpg",

"Map" : {
        "lattitude":-13.535196, 
        "longitude" :-71.958335
        }
},
{
"name" : "Chichen Itza",
"Place" : "Valladolid (Mexico)",
"image" : "https://www.wonders-of-the-world.net/Seven/images/Vignettes/Modernes/Chichen-Itza-V.jpg",

"Map" : {
        "lattitude":20.711893, 
        "longitude" :-88.202127
        }
},
{
"name" : "The Colosseum",
"Place" : "Roma (Italia)",
"image" : "https://www.wonders-of-the-world.net/Seven/images/Vignettes/Modernes/Colisee-de-Rome-V.jpg",

"Map" : {
        "lattitude":41.890506, 
        "longitude" :12.492209
        }
},
{
"name" : "Taj Mahal",
"Place" : "Agra (India)",
"image" : "https://www.wonders-of-the-world.net/Seven/images/Vignettes/Modernes/Taj-Mahal-V.jpg",

"Map" : {
        "lattitude":27.17416667,
        "longitude" :78.04222222
        }
}
          ]

}
